[{"id":"40c33e78-37e4-4405-b324-8992c0d46f77","location":{"id":"7be90f00-817b-40ee-8de0-056dfc50b411","country":"Venezuela","city":"El Cobre","street":"27 Melrose Center","zipCode":"30001","status":"ACTIVE"},"description":"Discrete assembly line","lat":44.4249036,"lon":105.3215372,"name":"Schumm-Stroman","status":"Idle"},
{"id":"8b88d05a-5b8e-42ce-aa8a-76a74284b8a8","location":{"id":"b3014155-15c4-47c3-b54f-eeeff03b44bd","country":"Greece","city":"Néo Psychikó","street":"62589 Debs Court","zipCode":"49190","status":"ACTIVE"},"description":"Discrete assembly line","lat":-8.0305091,"lon":110.6168921,"name":"Hansen Group","status":"Operative"},
{"id":"aa3a6d12-1bf6-4ca3-ac3b-9ce983b02ec9","location":{"id":"cf049413-0845-4799-a2e5-9cf76beb15ff","country":"Nigeria","city":"Nsukka","street":"72163 Fairfield Lane","zipCode":"30001","status":"ACTIVE"},"description":"Automated plant","lat":7.7299001,"lon":125.1001641,"name":"Nienow-Stracke","status":"Operative"},
{"id":"adebafe4-54ed-42bf-a0df-bb436c4832b6","location":{"id":"72c6190a-2995-445d-8bf5-48a89728456a","country":"Portugal","city":"Seroa","street":"51201 Derek Lane","zipCode":"12999","status":"ACTIVE"},"description":"Manufacturing plant","lat":16.9165711,"lon":107.0303221,"name":"Fahey and Sons","status":"Idle"},
{"id":"858cb694-5622-4602-879d-2118c5329fa3","location":{"id":"cc20c016-9d92-42fe-9e84-ab36f278f6ed","country":"China","city":"Kertai","street":"14324 Sherman Hill","zipCode":"499920","status":"ACTIVE"},"description":"Repetitive assembly line","lat":30.726207,"lon":67.0720012,"name":"Effertz Group","status":"Idle"},
{"id":"540d63ec-0516-4c2b-9fa2-cfec7f235880","location":{"id":"d88d5bb7-3e1b-4c55-ae43-dacff464a15e","country":"Sweden","city":"Strängnäs","street":"4 Pierstorff Trail","zipCode":"11372","status":"ACTIVE"},"description":"chemicals and plastics","lat":29.731101,"lon":116.251947,"name":"Ebert-Schmeler","status":"Operative"},
{"id":"ec779f21-d593-406a-b1c1-631a569da29f","location":{"id":"311afe48-b725-45e9-93e8-39d8045e085f","country":"China","city":"Xinshichang","street":"9 Coleman Crossing","zipCode":"49190","status":"ACTIVE"},"description":"Discrete assembly line","lat":55.9522407,"lon":25.5895781,"name":"Price-Bergnaum","status":"Idle"},
{"id":"cf179cc3-5b10-4e36-a58b-b8f090c644e3","location":{"id":"d88d5bb7-3e1b-4c55-ae43-dacff464a15e","country":"Sweden","city":"Strängnäs","street":"4 Pierstorff Trail","zipCode":"11372","status":"ACTIVE"},"description":"chemicals and plastics","lat":37.434092,"lon":116.357464,"name":"Runte, Stamm and Gaylord","status":"Operative"},
{"id":"994cbc03-95ad-4c84-87d9-3e08b6b2809d","location":{"id":"2c9eb15f-32cb-4429-95f9-f03bcbae0421","country":"South Korea","city":"Seoul","street":"0 Ramsey Drive","zipCode":"49190","status":"ACTIVE"},"description":"Discrete assembly line","lat":38.6032329,"lon":-9.1057581,"name":"Treutel Group","status":"Idle"},
{"id":"a3d17686-fd23-4986-909d-5f2f21652cb1","location":{"id":"d56eb647-eb65-411a-90f6-7ce622e79704","country":"Colombia","city":"San Marcos","street":"07109 Annamark Terrace","zipCode":"15206","status":"ACTIVE"},"description":"Discrete assembly line","lat":30.572815,"lon":104.066801,"name":"Sporer Group","status":"Idle"},
{"id":"47ec27e0-fa31-4d12-b5ff-a3dbc9558913","location":{"id":"b3014155-15c4-47c3-b54f-eeeff03b44bd","country":"Greece","city":"Néo Psychikó","street":"62589 Debs Court","zipCode":"49190","status":"ACTIVE"},"description":"chemicals and plastics","lat":14.5624842,"lon":121.0482871,"name":"Lakin, Erdman and Barrows","status":"Idle"},
{"id":"39f91815-fd2f-4748-bf49-57bb5aec07ec","location":{"id":"3a14d8fe-b7b3-4c9d-ba99-06bd630b38ba","country":"France","city":"Aulnay-sous-Bois","street":"0 Independence Lane","zipCode":"30001","status":"ACTIVE"},"description":"Repetitive assembly line","lat":19.6594511,"lon":-71.5065631,"name":"Weissnat, Dibbert and Rice","status":"Idle"},
{"id":"8af92f62-1dcd-453e-9729-4b358b725132","location":{"id":"036485d0-5204-4e51-892b-e6bd1e55abf2","country":"Norway","city":"Alta","street":"4 Sloan Alley","zipCode":"499920","status":"ACTIVE"},"description":"Automated plant","lat":-15.24014,"lon":-69.527634,"name":"Smitham Inc","status":"Idle"},
{"id":"d5c51bd5-8cbd-4f86-a408-395a763e4f08","location":{"id":"7be90f00-817b-40ee-8de0-056dfc50b411","country":"Venezuela","city":"El Cobre","street":"27 Melrose Center","zipCode":"30001","status":"ACTIVE"},"description":"Repetitive assembly line","lat":14.5713332,"lon":120.9855937,"name":"Rolfson, Jacobi and Kohler","status":"Idle"},
{"id":"95fa9b97-c17f-4112-9913-928fb1ef0a03","location":{"id":"d6a85c28-312d-44f0-9226-25134d2a04db","country":"Mexico","city":"Las Palmas","street":"44 East Junction","zipCode":"32162","status":"ACTIVE"},"description":"chemicals and plastics","lat":-7.2929068,"lon":107.2666396,"name":"McCullough and Sons","status":"Idle"},
{"id":"45c82e86-736e-46be-8c83-664a2c3ead97","location":{"id":"72c6190a-2995-445d-8bf5-48a89728456a","country":"Portugal","city":"Seroa","street":"51201 Derek Lane","zipCode":"12999","status":"ACTIVE"},"description":"Repetitive assembly line","lat":31.95388,"lon":35.2998,"name":"Schroeder-Goldner","status":"Idle"},
{"id":"db3ac763-172f-4e73-8ffd-8be383c279ed","location":{"id":"b81995f8-0297-40c7-9e41-cebe5ba4c489","country":"Nigeria","city":"Otun","street":"669 Becker Way","zipCode":"12999","status":"ACTIVE"},"description":"Discrete assembly line","lat":25.7784224,"lon":-103.2605763,"name":"Bashirian LLC","status":"Operative"},
{"id":"db4b9f9a-dfef-40d5-ba0b-09327542b49f","location":{"id":"fdbc9a2f-fa95-4963-90ba-8b4f68590ceb","country":"Russia","city":"Orël","street":"8 Orin Hill","zipCode":"15206","status":"ACTIVE"},"description":"Repetitive assembly line","lat":49.0511571,"lon":4.0911917,"name":"Mills, Thiel and Becker","status":"Operative"},
{"id":"f5a2acad-72db-4bad-a64b-115c59ee5a20","location":{"id":"311afe48-b725-45e9-93e8-39d8045e085f","country":"China","city":"Xinshichang","street":"9 Coleman Crossing","zipCode":"49190","status":"ACTIVE"},"description":"Manufacturing plant","lat":50.6276718,"lon":81.911898,"name":"Bruen-Price","status":"Operative"},
{"id":"1264aaad-d9d5-4af2-b729-a3db95c08beb","location":{"id":"cc20c016-9d92-42fe-9e84-ab36f278f6ed","country":"China","city":"Kertai","street":"14324 Sherman Hill","zipCode":"499920","status":"ACTIVE"},"description":"Repetitive assembly line","lat":44.8184554,"lon":20.4643411,"name":"Kutch, Parisian and O'Connell","status":"Idle"},
{"id":"fb4dd712-e410-44de-a387-c07f4bb12564","location":{"id":"d6a85c28-312d-44f0-9226-25134d2a04db","country":"Mexico","city":"Las Palmas","street":"44 East Junction","zipCode":"32162","status":"ACTIVE"},"description":"Automated plant","lat":36.553769,"lon":116.751986,"name":"Corkery-Howell","status":"Operative"},
{"id":"1953620c-b555-4904-a555-b39a815ada76","location":{"id":"2c9eb15f-32cb-4429-95f9-f03bcbae0421","country":"South Korea","city":"Seoul","street":"0 Ramsey Drive","zipCode":"49190","status":"ACTIVE"},"description":"Manufacturing plant","lat":9.9477873,"lon":-84.0592667,"name":"Johns and Sons","status":"Idle"},
{"id":"2c719763-3a77-459e-99e1-e814cf6b2977","location":{"id":"d56eb647-eb65-411a-90f6-7ce622e79704","country":"Colombia","city":"San Marcos","street":"07109 Annamark Terrace","zipCode":"15206","status":"ACTIVE"},"description":"Automated plant","lat":32.358901,"lon":35.246147,"name":"Ledner, Schinner and Hilll","status":"Operative"},
{"id":"9dd0c33d-2627-4ac3-b8fc-935dbf09ebe8","location":{"id":"cf049413-0845-4799-a2e5-9cf76beb15ff","country":"Nigeria","city":"Nsukka","street":"72163 Fairfield Lane","zipCode":"30001","status":"ACTIVE"},"description":"Repetitive assembly line","lat":40.941983,"lon":19.6996428,"name":"Senger, Kirlin and Emmerich","status":"Operative"},
{"id":"bc74dd2e-a752-49b4-b0f8-28e24089bb6f","location":{"id":"036485d0-5204-4e51-892b-e6bd1e55abf2","country":"Norway","city":"Alta","street":"4 Sloan Alley","zipCode":"499920","status":"ACTIVE"},"description":"Automated plant","lat":38.702541,"lon":114.982,"name":"Greenholt LLC","status":"Idle"}]